{"outcome":"win","round":25,"points":520,"cities":{"Abuja":{"name":"Abuja","latitude":9.077381,"longitude":7.401908,"population":1025,"connections":["Libreville","Boston","Roma","Melbourne","Warszawa"],"economy":"o","government":"-","hygiene":"-","awareness":"-"},"Accra":{"name":"Accra","latitude":5.602139,"longitude":-0.186598,"population":547,"connections":["Madrid","San Juan","Bamako","Bratislava","Yamoussoukro"],"economy":"--","government":"o","hygiene":"-","awareness":"-"},"Albuquerque":{"name":"Albuquerque","latitude":35.086263,"longitude":-106.646962,"population":464,"connections":["Ouagadougou","Երևան"],"economy":"o","government":"o","hygiene":"o","awareness":"o"},"Amsterdam":{"name":"Amsterdam","latitude":52.367178,"longitude":4.891943,"population":593,"connections":["Tegucigalpa","San José","Montevideo","أبو ظبي","Rio de Janeiro","Нұр-Сұлтан"],"economy":"o","government":"+","hygiene":"++","awareness":"++"},"Anchorage":{"name":"Anchorage","latitude":61.216336,"longitude":-149.907299,"population":257,"connections":["Toulouse","Chicago","Lilongwe","Aşgabat","La Habana","Ciudad de Córdoba"],"economy":"-","government":"++","hygiene":"+","awareness":"+"},"Andorra la Vella":{"name":"Andorra la Vella","latitude":42.506548,"longitude":1.521481,"population":17,"connections":[],"economy":"-","government":"+","hygiene":"+","awareness":"+"},"Ankara":{"name":"Ankara","latitude":39.932257,"longitude":32.865068,"population":2889,"connections":["Belfast","Sydney","Göteborg","香港","서울특별시","Kinshasa","Dakar","Bogotá"],"economy":"o","government":"o","hygiene":"o","awareness":"o"},"Antananarivo":{"name":"Antananarivo","latitude":-18.87857,"longitude":47.507362,"population":795,"connections":["香港","ཐིམ་ཕུ་","Recife","اِنْجَمِينَا","Tijuana","کابل","Reykjavík"],"economy":"o","government":"o","hygiene":"o","awareness":"-"},"Asunción":{"name":"Asunción","latitude":-25.264861,"longitude":-57.574745,"population":248,"connections":["አዲስ አበባ","Улаанбаатар","Seattle"],"economy":"-","government":"o","hygiene":"o","awareness":"o"},"Atlanta":{"name":"Atlanta","latitude":33.748283,"longitude":-84.389707,"population":2887,"connections":["成都市","New Orleans","London","Luanda","Ciudad de Panamá","重庆市","Bujumbura","मुंबई"],"economy":"o","government":"o","hygiene":"o","awareness":"o"},"Austin":{"name":"Austin","latitude":30.265588,"longitude":-97.747916,"population":1066,"connections":["نواكشوط","München","Toronto","Oslo","Freetown"],"economy":"--","government":"+","hygiene":"o","awareness":"o"},"Aşgabat":{"name":"Aşgabat","latitude":37.959876,"longitude":58.338167,"population":427,"connections":["Тошкент","Anchorage","San José","Madrid","El Paso"],"economy":"--","government":"o","hygiene":"o","awareness":"o"},"Bakı":{"name":"Bakı","latitude":40.407905,"longitude":49.864914,"population":1193,"connections":["El Paso","کابل","Улаанбаатар","Montreal","Phoenix","Wellington","乌鲁木齐市"],"economy":"o","government":"o","hygiene":"o","awareness":"+"},"Bamako":{"name":"Bamako","latitude":12.641059,"longitude":-8.001008,"population":890,"connections":["Pretoria","Accra","台北","Berlin","La Habana","Cape Town"],"economy":"-","government":"o","hygiene":"o","awareness":"o"},"Bangî":{"name":"Bangî","latitude":4.394482,"longitude":18.556256,"population":303,"connections":["بيروت","Улаанбаатар"],"economy":"--","government":"o","hygiene":"-","awareness":"-"},"Banjul":{"name":"Banjul","latitude":13.454812,"longitude":-16.579555,"population":15,"connections":[],"economy":"--","government":"o","hygiene":"-","awareness":"o"},"Barcelona":{"name":"Barcelona","latitude":41.407388,"longitude":2.174172,"population":930,"connections":["Zagreb","Paris","Stockholm","Philadelphia","Managua","Dakar"],"economy":"o","government":"o","hygiene":"+","awareness":"+"},"Belfast":{"name":"Belfast","latitude":54.597843,"longitude":-5.93041,"population":177,"connections":["كوالا لومڤور","Santiago de Chile","دمشق","Ankara","San Francisco","Recife"],"economy":"o","government":"+","hygiene":"+","awareness":"+"},"Belmopan":{"name":"Belmopan","latitude":17.251314,"longitude":-88.75891,"population":12,"connections":[],"economy":"o","government":"o","hygiene":"+","awareness":"o"},"Bergen":{"name":"Bergen","latitude":60.406287,"longitude":5.323408,"population":171,"connections":["ירושלים","Porto Alegre","Praha","Dallas"],"economy":"o","government":"++","hygiene":"+","awareness":"++"},"Berlin":{"name":"Berlin","latitude":52.520861,"longitude":13.409419,"population":2309,"connections":["Sevilla","काठमाडौँ","Minneapolis","नई दिल्ली","Luanda","Bamako"],"economy":"+","government":"+","hygiene":"+","awareness":"+"},"Bern":{"name":"Bern","latitude":46.94822,"longitude":7.448085,"population":94,"connections":["Скопје","کابل"],"economy":"o","government":"+","hygiene":"++","awareness":"++"},"Bissau":{"name":"Bissau","latitude":11.862489,"longitude":-15.583656,"population":157,"connections":["Göteborg","San Salvador"],"economy":"-","government":"o","hygiene":"o","awareness":"o"},"Bloemfontein":{"name":"Bloemfontein","latitude":-29.082368,"longitude":26.161928,"population":123,"connections":["Roma","Phoenix","عمان","San Juan"],"economy":"-","government":"o","hygiene":"o","awareness":"o"},"Bogotá":{"name":"Bogotá","latitude":4.711245,"longitude":-74.074171,"population":3198,"connections":["Lima","ঢাকা","بغداد","Rio de Janeiro","København","كوالا لومڤور","Bratislava","Ankara","Dakar","Hà Nội","Brasília","Santiago de Chile"],"economy":"-","government":"o","hygiene":"o","awareness":"o"},"Boston":{"name":"Boston","latitude":42.361278,"longitude":-71.05749,"population":384,"connections":["Hamburg","Abuja","Madrid","Wien"],"economy":"-","government":"+","hygiene":"o","awareness":"+"},"Brasília":{"name":"Brasília","latitude":-15.794443,"longitude":-47.881742,"population":2079,"connections":["Bogotá","Lëtzebuerg","عمان","临沂市","المنامة","Denver"],"economy":"o","government":"o","hygiene":"o","awareness":"o"},"Bratislava":{"name":"Bratislava","latitude":48.14715,"longitude":17.102178,"population":214,"connections":["Bogotá","عمان","Accra"],"economy":"-","government":"o","hygiene":"o","awareness":"o"},"Brazzaville":{"name":"Brazzaville","latitude":-4.261914,"longitude":15.243356,"population":608,"connections":["Rio de Janeiro","Подгорица","Seattle","Якутск","طرابلس","厦门市"],"economy":"--","government":"-","hygiene":"o","awareness":"-"},"Brisbane":{"name":"Brisbane","latitude":-27.46719,"longitude":153.017885,"population":1438,"connections":["San Juan","Nantes","Київ","Oulu","New Orleans"],"economy":"o","government":"++","hygiene":"+","awareness":"+"},"Bruxelles":{"name":"Bruxelles","latitude":50.849102,"longitude":4.349639,"population":116,"connections":["서울특별시","Milwaukee","කොළඹ"],"economy":"o","government":"+","hygiene":"++","awareness":"++"},"București":{"name":"București","latitude":44.424811,"longitude":26.098756,"population":1002,"connections":["Malabo","厦门市","Kansas City","Kingston","昆明市"],"economy":"--","government":"+","hygiene":"+","awareness":"o"},"Budapest":{"name":"Budapest","latitude":47.497368,"longitude":19.023866,"population":958,"connections":["بغداد","Milwaukee","المنامة","La Paz","厦门市","ঢাকা"],"economy":"-","government":"o","hygiene":"o","awareness":"o"},"Buenos Aires":{"name":"Buenos Aires","latitude":-34.62654,"longitude":-58.429867,"population":1363,"connections":["نواكشوط","西安市","Houston","Lima","دمشق","北京市"],"economy":"-","government":"o","hygiene":"o","awareness":"o"},"Bujumbura":{"name":"Bujumbura","latitude":-3.362274,"longitude":29.36568,"population":204,"connections":["Los Angeles","New York City","กรุงเทพมหานคร","Philadelphia","Dallas","Atlanta"],"economy":"-","government":"-","hygiene":"o","awareness":"-"},"Cape Town":{"name":"Cape Town","latitude":-33.932314,"longitude":18.432142,"population":205,"connections":["تونس","Bamako","평양"],"economy":"o","government":"o","hygiene":"o","awareness":"o"},"Caracas":{"name":"Caracas","latitude":10.481213,"longitude":-66.904444,"population":667,"connections":["አዲስ አበባ","Hà Nội","Lisboa","香港","서울특별시"],"economy":"--","government":"-","hygiene":"-","awareness":"-"},"Cayenne":{"name":"Cayenne","latitude":4.922256,"longitude":-52.31476,"population":30,"connections":[],"economy":"-","government":"o","hygiene":"o","awareness":"o"},"Charlotte":{"name":"Charlotte","latitude":35.23056,"longitude":-80.83915,"population":1306,"connections":["Nantes","台北","Vancouver","Madrid","Tallinn","Ciudad de Guatemala"],"economy":"-","government":"o","hygiene":"+","awareness":"o"},"Chicago":{"name":"Chicago","latitude":41.879165,"longitude":-87.65026,"population":4999,"connections":["Душанбе","كوالا لومڤور","Ciudad de México","上海市","서울특별시","Anchorage","広島市","تهران","Luanda"],"economy":"-","government":"+","hygiene":"o","awareness":"o"},"Chișinău":{"name":"Chișinău","latitude":47.009915,"longitude":28.861951,"population":429,"connections":["San Francisco","Pittsburgh"],"economy":"o","government":"o","hygiene":"++","awareness":"+"},"Christchurch":{"name":"Christchurch","latitude":-43.533957,"longitude":172.633404,"population":261,"connections":["Ouagadougou","Recife","Montreal"],"economy":"o","government":"++","hygiene":"++","awareness":"+"},"Cincinnati":{"name":"Cincinnati","latitude":39.102491,"longitude":-84.505384,"population":1125,"connections":["Cleveland","أسمرة","Melbourne","Manaus","Prishtinë","Београд"],"economy":"--","government":"+","hygiene":"+","awareness":"+"},"Città del Vaticano":{"name":"Città del Vaticano","latitude":41.904207,"longitude":12.453601,"population":1,"connections":[],"economy":"o","government":"++","hygiene":"++","awareness":"++"},"Città di San Marino":{"name":"Città di San Marino","latitude":43.939173,"longitude":12.4478,"population":4,"connections":[],"economy":"-","government":"+","hygiene":"+","awareness":"+"},"Ciudad de Córdoba":{"name":"Ciudad de Córdoba","latitude":-31.420498,"longitude":-64.188166,"population":640,"connections":["Якутск","နေပြည်တော်","دمشق","Anchorage","Улаанбаатар","Београд"],"economy":"-","government":"o","hygiene":"o","awareness":"o"},"Ciudad de Guatemala":{"name":"Ciudad de Guatemala","latitude":14.627538,"longitude":-90.514192,"population":1306,"connections":["Las Vegas","Managua","Winnipeg","台北","Ottawa","Charlotte"],"economy":"o","government":"+","hygiene":"o","awareness":"+"},"Ciudad de México":{"name":"Ciudad de México","latitude":19.432127,"longitude":-99.146368,"population":4483,"connections":["Libreville","Kigali","Chicago","Washington, D.C.","Αθήνα","Conakry","Dallas","Lima"],"economy":"-","government":"o","hygiene":"o","awareness":"+"},"Ciudad de Panamá":{"name":"Ciudad de Panamá","latitude":8.983738,"longitude":-79.519064,"population":267,"connections":["الرياض","Atlanta","Lima","Nashville","กรุงเทพมหานคร"],"economy":"-","government":"+","hygiene":"o","awareness":"+"},"Cleveland":{"name":"Cleveland","latitude":41.497511,"longitude":-81.692816,"population":1136,"connections":["ວຽງຈັນ","Detroit","Yaoundé","Las Vegas","Cincinnati"],"economy":"o","government":"o","hygiene":"o","awareness":"+"},"Cockburn Town":{"name":"Cockburn Town","latitude":21.467465,"longitude":-71.139579,"population":5,"connections":[],"economy":"o","government":"++","hygiene":"++","awareness":"+"},"Conakry":{"name":"Conakry","latitude":9.642003,"longitude":-13.575557,"population":684,"connections":["Pittsburgh","London","Wien","Ciudad de México","Київ"],"economy":"-","government":"o","hygiene":"o","awareness":"o"},"Dakar":{"name":"Dakar","latitude":14.716335,"longitude":-17.467371,"population":377,"connections":["Bogotá","Barcelona","София","Ankara","مسقط"],"economy":"--","government":"-","hygiene":"-","awareness":"-"},"Dallas":{"name":"Dallas","latitude":32.77903,"longitude":-96.796782,"population":4715,"connections":["Ciudad de México","Bergen","مسقط","Freetown","मुंबई","नई दिल्ली","西安市","Bujumbura"],"economy":"+","government":"+","hygiene":"++","awareness":"+"},"Denver":{"name":"Denver","latitude":39.737331,"longitude":-104.993821,"population":1660,"connections":["Juba","Toulouse","ວຽງຈັນ","台北","Београд","La Habana","Brasília"],"economy":"o","government":"o","hygiene":"+","awareness":"+"},"Detroit":{"name":"Detroit","latitude":42.33112,"longitude":-83.044962,"population":1912,"connections":["နေပြည်တော်","Freetown","Manaus","Tegucigalpa","Cleveland","Донецьк","Бишкек"],"economy":"o","government":"o","hygiene":"o","awareness":"+"},"Dodoma":{"name":"Dodoma","latitude":-6.163048,"longitude":35.751349,"population":950,"connections":["Tijuana","Душанбе","الرِّبَاط‎","Montreal","Melbourne","Montevideo"],"economy":"--","government":"o","hygiene":"o","awareness":"o"},"Dublin":{"name":"Dublin","latitude":53.349658,"longitude":-6.260816,"population":347,"connections":["Paris","San Juan"],"economy":"-","government":"+","hygiene":"+","awareness":"+"},"Edinburgh":{"name":"Edinburgh","latitude":55.952531,"longitude":-3.189204,"population":322,"connections":["Riga","Пермь"],"economy":"o","government":"+","hygiene":"++","awareness":"++"},"Edmonton":{"name":"Edmonton","latitude":53.545514,"longitude":-113.495475,"population":845,"connections":["کابل","Georgetown (Guyana)","Monrovia","Santiago de Chile","Juba"],"economy":"o","government":"+","hygiene":"+","awareness":"o"},"El Paso":{"name":"El Paso","latitude":31.761445,"longitude":-106.480144,"population":321,"connections":["مدينة الجزائر","Aşgabat","Bakı","台北","Hà Nội","東京"],"economy":"--","government":"o","hygiene":"o","awareness":"-"},"Freetown":{"name":"Freetown","latitude":8.463847,"longitude":-13.229604,"population":396,"connections":["Dallas","រាជធានី​ភ្នំពេញ","Austin","Detroit","Praha"],"economy":"-","government":"-","hygiene":"-","awareness":"-"},"Gaborone":{"name":"Gaborone","latitude":-24.629578,"longitude":25.927756,"population":95,"connections":["Washington, D.C.","Quito"],"economy":"-","government":"o","hygiene":"o","awareness":"o"},"Gdańsk":{"name":"Gdańsk","latitude":54.351072,"longitude":18.648802,"population":315,"connections":["Zagreb","London","Lungsod ng Maynila","Nairobi","Sydney","Kampala","Vancouver"],"economy":"o","government":"o","hygiene":"+","awareness":"+"},"Georgetown (Guyana)":{"name":"Georgetown (Guyana)","latitude":6.800923,"longitude":-58.155654,"population":80,"connections":["Kigali","Edmonton","北京市"],"economy":"-","government":"o","hygiene":"+","awareness":"o"},"Göteborg":{"name":"Göteborg","latitude":57.813938,"longitude":11.965736,"population":377,"connections":["Ankara","काठमाडौँ","Bissau"],"economy":"o","government":"++","hygiene":"++","awareness":"++"},"Hamburg":{"name":"Hamburg","latitude":53.54845,"longitude":9.978514,"population":1169,"connections":["Boston","Kinshasa","Luanda","澳門","Wien"],"economy":"o","government":"+","hygiene":"+","awareness":"+"},"Harare":{"name":"Harare","latitude":-17.825123,"longitude":31.03145,"population":593,"connections":["Helsinki","Windhoek","New York City","Phoenix","San José"],"economy":"-","government":"-","hygiene":"o","awareness":"-"},"Helsinki":{"name":"Helsinki","latitude":60.167987,"longitude":24.941757,"population":420,"connections":["Kampala","طرابلس","Harare"],"economy":"+","government":"+","hygiene":"++","awareness":"+"},"Honolulu":{"name":"Honolulu","latitude":21.305311,"longitude":-157.857097,"population":672,"connections":["Sydney","Miami","Санкт-Петербург"],"economy":"+","government":"++","hygiene":"++","awareness":"++"},"Houston":{"name":"Houston","latitude":29.763251,"longitude":-95.387592,"population":3366,"connections":["Luanda","Подгорица","Yamoussoukro","بغداد","重庆市","الرياض","Buenos Aires","北京市","சிங்கப்பூர் குடியரசு"],"economy":"--","government":"+","hygiene":"o","awareness":"o"},"Hà Nội":{"name":"Hà Nội","latitude":21.027946,"longitude":105.834989,"population":3304,"connections":["Libreville","Bogotá","नई दिल्ली","بغداد","El Paso","长春市","Caracas","طرابلس"],"economy":"o","government":"+","hygiene":"o","awareness":"+"},"Jakarta":{"name":"Jakarta","latitude":-6.207899,"longitude":106.843249,"population":16649,"connections":["東京","กรุงเทพมหานคร","香港","Milano","成都市","Tijuana","Nantes","تهران","København","Los Angeles"],"economy":"o","government":"o","hygiene":"+","awareness":"o"},"Juba":{"name":"Juba","latitude":4.859835,"longitude":31.571876,"population":236,"connections":["طرابلس","Denver","Melbourne","Edmonton"],"economy":"-","government":"o","hygiene":"o","awareness":"o"},"Kampala":{"name":"Kampala","latitude":0.347361,"longitude":32.578524,"population":559,"connections":["София","Москва","乌鲁木齐市","Gdańsk","Helsinki"],"economy":"--","government":"-","hygiene":"o","awareness":"o"},"Kansas City":{"name":"Kansas City","latitude":39.093715,"longitude":-94.574376,"population":1209,"connections":["Երևան","Lisboa","Nassau","Tijuana","Perth","București","Manaus"],"economy":"o","government":"+","hygiene":"+","awareness":"+"},"Kigali":{"name":"Kigali","latitude":-1.970411,"longitude":30.103516,"population":339,"connections":["กรุงเทพมหานคร","Ciudad de México","昆明市","厦门市","Georgetown (Guyana)"],"economy":"--","government":"--","hygiene":"-","awareness":"-"},"Kingston":{"name":"Kingston","latitude":18.017443,"longitude":-76.811815,"population":380,"connections":["București","თბილისი","La Habana"],"economy":"+","government":"o","hygiene":"+","awareness":"++"},"Kinshasa":{"name":"Kinshasa","latitude":-4.439981,"longitude":15.266437,"population":4025,"connections":["Washington, D.C.","كوالا لومڤور","Якутск","Ankara","Tijuana","نواكشوط","Hamburg","Москва"],"economy":"--","government":"-","hygiene":"-","awareness":"-"},"Köln":{"name":"Köln","latitude":50.941441,"longitude":6.958324,"population":647,"connections":["Quito","ཐིམ་ཕུ་","Санкт-Петербург","صنعاء‎","Miami"],"economy":"o","government":"+","hygiene":"+","awareness":"+"},"København":{"name":"København","latitude":55.675313,"longitude":12.572536,"population":414,"connections":["乌鲁木齐市","Bogotá","北京市","Jakarta"],"economy":"o","government":"++","hygiene":"+","awareness":"+"},"La Habana":{"name":"La Habana","latitude":23.112576,"longitude":-82.366307,"population":1196,"connections":["San Juan","Kingston","Denver","Bamako","بغداد","Anchorage"],"economy":"o","government":"o","hygiene":"+","awareness":"o"},"La Paz":{"name":"La Paz","latitude":-16.490746,"longitude":-68.11687,"population":288,"connections":["Niamey","Budapest"],"economy":"--","government":"o","hygiene":"o","awareness":"o"},"Las Vegas":{"name":"Las Vegas","latitude":36.171493,"longitude":-115.137929,"population":407,"connections":["Новосибирск","Ciudad de Guatemala","台北","Cleveland","Oulu"],"economy":"o","government":"o","hygiene":"++","awareness":"+"},"Libreville":{"name":"Libreville","latitude":0.421112,"longitude":9.467307,"population":226,"connections":["Hà Nội","长春市","Ciudad de México","Abuja","Rio de Janeiro"],"economy":"--","government":"-","hygiene":"-","awareness":"-"},"Lilongwe":{"name":"Lilongwe","latitude":-13.966186,"longitude":33.769217,"population":356,"connections":["Anchorage","Port-au-Prince"],"economy":"o","government":"o","hygiene":"-","awareness":"o"},"Lima":{"name":"Lima","latitude":-12.045764,"longitude":-77.052347,"population":4643,"connections":["Bogotá","London","Мінск","Ciudad de México","香港","Ciudad de Panamá","临沂市","Tirana","Buenos Aires"],"economy":"--","government":"o","hygiene":"o","awareness":"o"},"Lisboa":{"name":"Lisboa","latitude":38.722732,"longitude":-9.140634,"population":267,"connections":["Kansas City","Montevideo","Caracas"],"economy":"-","government":"+","hygiene":"o","awareness":"+"},"Ljubljana":{"name":"Ljubljana","latitude":46.056805,"longitude":14.502228,"population":146,"connections":["مدينة الجزائر","بيروت","كوالا لومڤور","长春市"],"economy":"--","government":"o","hygiene":"o","awareness":"o"},"Lomé":{"name":"Lomé","latitude":6.127019,"longitude":1.228492,"population":268,"connections":["Донецьк","Sevilla","الدوحة"],"economy":"--","government":"-","hygiene":"-","awareness":"o"},"London":{"name":"London","latitude":51.507194,"longitude":-0.127526,"population":5572,"connections":["Stockholm","Gdańsk","Conakry","Miami","昆明市","Atlanta","Lima","Paris"],"economy":"o","government":"+","hygiene":"++","awareness":"++"},"Los Angeles":{"name":"Los Angeles","latitude":34.062266,"longitude":-118.270315,"population":8269,"connections":["Paramaribo","上海市","Santiago de Chile","Monrovia","Vancouver","मुंबई","New York City","长春市","Bujumbura","Jakarta"],"economy":"+","government":"+","hygiene":"+","awareness":"+"},"Luanda":{"name":"Luanda","latitude":-8.816887,"longitude":13.232604,"population":958,"connections":["Berlin","Houston","Atlanta","Hamburg","Chicago","كوالا لومڤور"],"economy":"--","government":"o","hygiene":"o","awareness":"o"},"Lungsod ng Maynila":{"name":"Lungsod ng Maynila","latitude":14.598489,"longitude":120.985396,"population":1056,"connections":["San Francisco","広島市","Melbourne","Nassau","Gdańsk"],"economy":"o","government":"o","hygiene":"+","awareness":"o"},"Lusaka":{"name":"Lusaka","latitude":-15.385705,"longitude":28.320748,"population":808,"connections":["Montevideo","Yamoussoukro","काठमाडौँ","Мурманск","Niamey","Monrovia"],"economy":"-","government":"-","hygiene":"-","awareness":"-"},"Lëtzebuerg":{"name":"Lëtzebuerg","latitude":49.611827,"longitude":6.130033,"population":69,"connections":["الرِّبَاط‎","Brasília"],"economy":"o","government":"o","hygiene":"o","awareness":"+"},"Madrid":{"name":"Madrid","latitude":40.413302,"longitude":-3.70289,"population":2007,"connections":["Aşgabat","Boston","Quito","Accra","Yamoussoukro","Новосибирск","台北","Charlotte"],"economy":"o","government":"+","hygiene":"++","awareness":"+"},"Malabo":{"name":"Malabo","latitude":3.756131,"longitude":8.785107,"population":117,"connections":["اسلام آباد","București"],"economy":"--","government":"o","hygiene":"o","awareness":"o"},"Managua":{"name":"Managua","latitude":12.113763,"longitude":-86.23752,"population":514,"connections":["Tegucigalpa","ཐིམ་ཕུ་","Sevilla","Ciudad de Guatemala","Barcelona"],"economy":"--","government":"+","hygiene":"o","awareness":"+"},"Manaus":{"name":"Manaus","latitude":-3.11871,"longitude":-60.014828,"population":934,"connections":["Cincinnati","Detroit","重庆市","المنامة","Kansas City"],"economy":"-","government":"o","hygiene":"o","awareness":"o"},"Maputo":{"name":"Maputo","latitude":-25.968124,"longitude":32.572927,"population":347,"connections":["თბილისი","Сарајево","كوالا لومڤور","نواكشوط","Perth"],"economy":"--","government":"o","hygiene":"--","awareness":"o"},"Maseru":{"name":"Maseru","latitude":-29.315503,"longitude":27.485807,"population":155,"connections":["Якутск","Скопје"],"economy":"-","government":"o","hygiene":"o","awareness":"o"},"Mbabane":{"name":"Mbabane","latitude":-26.305508,"longitude":31.135811,"population":52,"connections":[],"economy":"-","government":"o","hygiene":"o","awareness":"o"},"Melbourne":{"name":"Melbourne","latitude":-37.807498,"longitude":144.972085,"population":3115,"connections":["Dodoma","Lungsod ng Maynila","Abuja","Riga","乌鲁木齐市","Juba","Cincinnati"],"economy":"o","government":"+","hygiene":"++","awareness":"+"},"Miami":{"name":"Miami","latitude":25.760749,"longitude":-80.194785,"population":3105,"connections":["Santiago de Chile","Pittsburgh","London","西安市","重庆市","Köln","صنعاء‎","Honolulu"],"economy":"-","government":"+","hygiene":"+","awareness":"+"},"Milano":{"name":"Milano","latitude":45.46488,"longitude":9.19009,"population":804,"connections":["Santo Domingo","کابل","Reykjavík","Toronto","Jakarta"],"economy":"o","government":"++","hygiene":"o","awareness":"+"},"Milwaukee":{"name":"Milwaukee","latitude":43.038236,"longitude":-87.908386,"population":892,"connections":["Montreal","Bruxelles","Budapest","Новосибирск","Пермь"],"economy":"-","government":"+","hygiene":"+","awareness":"+"},"Minneapolis":{"name":"Minneapolis","latitude":44.975776,"longitude":-93.269377,"population":231,"connections":["اِنْجَمِينَا","کابل","Berlin"],"economy":"o","government":"o","hygiene":"o","awareness":"o"},"Monaco":{"name":"Monaco","latitude":43.74073,"longitude":7.426154,"population":28,"connections":[],"economy":"o","government":"+","hygiene":"+","awareness":"++"},"Monrovia":{"name":"Monrovia","latitude":6.315329,"longitude":-10.80607,"population":419,"connections":["Lusaka","武汉市","بيروت","Edmonton","Los Angeles"],"economy":"--","government":"o","hygiene":"o","awareness":"o"},"Montevideo":{"name":"Montevideo","latitude":-34.901084,"longitude":-56.165716,"population":782,"connections":["Lusaka","Lisboa","Amsterdam","北京市","Dodoma"],"economy":"o","government":"o","hygiene":"+","awareness":"+"},"Montreal":{"name":"Montreal","latitude":45.499271,"longitude":-73.568261,"population":1146,"connections":["عمان","Bakı","Milwaukee","Якутск","Christchurch","Dodoma"],"economy":"o","government":"+","hygiene":"+","awareness":"++"},"München":{"name":"München","latitude":48.137687,"longitude":11.579932,"population":815,"connections":["长春市","New York City","Sydney","Sevilla","Austin"],"economy":"o","government":"++","hygiene":"o","awareness":"+"},"Nairobi":{"name":"Nairobi","latitude":-1.293254,"longitude":36.816152,"population":1155,"connections":["Пермь","مدينة الجزائر","الخرطوم","Gdańsk","मुंबई"],"economy":"--","government":"o","hygiene":"o","awareness":"o"},"Nantes":{"name":"Nantes","latitude":47.220016,"longitude":-1.552848,"population":294,"connections":["مسقط","Brisbane","Charlotte","Jakarta"],"economy":"-","government":"+","hygiene":"o","awareness":"+"},"Nashville":{"name":"Nashville","latitude":36.166051,"longitude":-86.778387,"population":828,"connections":["Ciudad de Panamá","Ouagadougou","الخرطوم","Warszawa","ວຽງຈັນ"],"economy":"--","government":"+","hygiene":"o","awareness":"o"},"Nassau":{"name":"Nassau","latitude":25.044986,"longitude":-77.353194,"population":166,"connections":["Lungsod ng Maynila","上海市","평양","နေပြည်တော်","Kansas City"],"economy":"o","government":"+","hygiene":"+","awareness":"o"},"New Orleans":{"name":"New Orleans","latitude":29.950854,"longitude":-90.074832,"population":785,"connections":["東京","Atlanta","አዲስ አበባ","Brisbane","Winnipeg"],"economy":"o","government":"+","hygiene":"+","awareness":"+"},"New York City":{"name":"New York City","latitude":40.71354,"longitude":-74.04286,"population":4189,"connections":["नई दिल्ली","Pot Mosbi","München","Harare","临沂市","Bujumbura","Los Angeles","Rio de Janeiro"],"economy":"-","government":"o","hygiene":"o","awareness":"o"},"Niamey":{"name":"Niamey","latitude":13.51043,"longitude":2.125212,"population":434,"connections":["San Francisco","Lusaka","ཐིམ་ཕུ་","Санкт-Петербург","La Paz"],"economy":"--","government":"o","hygiene":"o","awareness":"o"},"Nuuk":{"name":"Nuuk","latitude":64.181196,"longitude":-51.694279,"population":14,"connections":[],"economy":"+","government":"+","hygiene":"+","awareness":"++"},"Oslo":{"name":"Oslo","latitude":59.912831,"longitude":10.731481,"population":419,"connections":["Austin","西安市","Санкт-Петербург","சிங்கப்பூர் குடியரசு"],"economy":"o","government":"++","hygiene":"++","awareness":"+"},"Ottawa":{"name":"Ottawa","latitude":45.423575,"longitude":-75.70278,"population":768,"connections":["Wien","أسمرة","Ciudad de Guatemala","San Salvador","Երևան"],"economy":"o","government":"+","hygiene":"+","awareness":"+"},"Ouagadougou":{"name":"Ouagadougou","latitude":12.368182,"longitude":-1.518315,"population":633,"connections":["Nashville","Albuquerque","مدينة الجزائر","Toronto","Санкт-Петербург","Christchurch"],"economy":"--","government":"-","hygiene":"-","awareness":"o"},"Oulu":{"name":"Oulu","latitude":65.044998,"longitude":25.459239,"population":136,"connections":["Las Vegas","Brisbane"],"economy":"+","government":"+","hygiene":"++","awareness":"++"},"Paramaribo":{"name":"Paramaribo","latitude":5.85191,"longitude":-55.202738,"population":123,"connections":["Los Angeles","الخرطوم"],"economy":"-","government":"o","hygiene":"o","awareness":"o"},"Paris":{"name":"Paris","latitude":48.856579,"longitude":2.351178,"population":1417,"connections":["London","Barcelona","Reykjavík","Washington, D.C.","Dublin"],"economy":"+","government":"+","hygiene":"++","awareness":"++"},"Perth":{"name":"Perth","latitude":-31.945414,"longitude":115.857137,"population":1322,"connections":["San Francisco","ວຽງຈັນ","Portland","Toronto","Maputo","Kansas City"],"economy":"+","government":"++","hygiene":"++","awareness":"+"},"Philadelphia":{"name":"Philadelphia","latitude":39.949795,"longitude":-75.166792,"population":876,"connections":["Bujumbura","San Francisco","Barcelona","சிங்கப்பூர் குடியரசு","Prishtinë"],"economy":"o","government":"o","hygiene":"o","awareness":"+"},"Phoenix":{"name":"Phoenix","latitude":33.451697,"longitude":-112.074271,"population":2528,"connections":["Тошкент","Strasbourg","Bakı","اسلام آباد","Мінск","Harare","Bloemfontein","أبو ظبي"],"economy":"-","government":"+","hygiene":"+","awareness":"++"},"Pittsburgh":{"name":"Pittsburgh","latitude":40.441277,"longitude":-79.998355,"population":180,"connections":["San José","Conakry","Miami","Chișinău"],"economy":"o","government":"+","hygiene":"+","awareness":"o"},"Port of Spain":{"name":"Port of Spain","latitude":10.650241,"longitude":-61.513524,"population":28,"connections":[],"economy":"o","government":"+","hygiene":"++","awareness":"+"},"Port-au-Prince":{"name":"Port-au-Prince","latitude":18.59497,"longitude":-72.300942,"population":478,"connections":["Lilongwe","រាជធានី​ភ្នំពេញ","上海市","평양","العيون"],"economy":"--","government":"o","hygiene":"o","awareness":"o"},"Portland":{"name":"Portland","latitude":45.501254,"longitude":-122.67562,"population":437,"connections":["الرياض","Београд","Perth"],"economy":"o","government":"+","hygiene":"++","awareness":"++"},"Porto Alegre":{"name":"Porto Alegre","latitude":-30.033329,"longitude":-51.219721,"population":627,"connections":["San Francisco","台北","Warszawa","Bergen","العيون"],"economy":"-","government":"o","hygiene":"o","awareness":"o"},"Porto-Novo":{"name":"Porto-Novo","latitude":6.497144,"longitude":2.628993,"population":88,"connections":["Yamoussoukro","临沂市"],"economy":"--","government":"o","hygiene":"-","awareness":"o"},"Pot Mosbi":{"name":"Pot Mosbi","latitude":-9.443109,"longitude":147.179444,"population":209,"connections":["Wien","New York City","西安市"],"economy":"o","government":"o","hygiene":"+","awareness":"o"},"Praha":{"name":"Praha","latitude":50.07369,"longitude":14.441585,"population":766,"connections":["Freetown","نواكشوط","Seattle","Wien","Bergen"],"economy":"o","government":"+","hygiene":"++","awareness":"+"},"Pretoria":{"name":"Pretoria","latitude":-25.745595,"longitude":28.232962,"population":314,"connections":["Bamako","Київ","دمشق"],"economy":"-","government":"o","hygiene":"o","awareness":"o"},"Prishtinë":{"name":"Prishtinë","latitude":42.663976,"longitude":21.16422,"population":81,"connections":["Philadelphia","重庆市","Cincinnati","नई दिल्ली"],"economy":"o","government":"o","hygiene":"o","awareness":"o"},"Quito":{"name":"Quito","latitude":-0.178354,"longitude":-78.463506,"population":780,"connections":["Gaborone","Нұр-Сұлтан","الرِّبَاط‎","重庆市","Köln","Madrid"],"economy":"--","government":"o","hygiene":"o","awareness":"o"},"Recife":{"name":"Recife","latitude":-8.058263,"longitude":-34.884437,"population":818,"connections":["Belfast","Antananarivo","Washington, D.C.","평양","Christchurch"],"economy":"o","government":"o","hygiene":"o","awareness":"+"},"Reykjavík":{"name":"Reykjavík","latitude":64.146053,"longitude":-21.942394,"population":75,"connections":["Antananarivo","Paris","Москва","東京","Milano"],"economy":"-","government":"++","hygiene":"+","awareness":"++"},"Riga":{"name":"Riga","latitude":56.949308,"longitude":24.107184,"population":413,"connections":["Edinburgh","Santo Domingo","Melbourne"],"economy":"o","government":"+","hygiene":"++","awareness":"+"},"Rio de Janeiro":{"name":"Rio de Janeiro","latitude":-22.90901,"longitude":-43.194678,"population":3115,"connections":["Amsterdam","成都市","تهران","Brazzaville","Libreville","Bogotá","Нұр-Сұлтан","New York City"],"economy":"-","government":"o","hygiene":"o","awareness":"o"},"Roma":{"name":"Roma","latitude":41.902337,"longitude":12.453997,"population":1493,"connections":["武汉市","Abuja","Bloemfontein","طرابلس","تهران","Winnipeg"],"economy":"-","government":"o","hygiene":"o","awareness":"+"},"Salt Lake City":{"name":"Salt Lake City","latitude":40.762026,"longitude":-111.895081,"population":114,"connections":["Мінск","Λευκωσία","厦门市","Toulouse"],"economy":"-","government":"+","hygiene":"+","awareness":"+"},"San Francisco":{"name":"San Francisco","latitude":37.772894,"longitude":-122.425584,"population":2571,"connections":["Belfast","San Juan","Lungsod ng Maynila","Chișinău","Philadelphia","Porto Alegre","Niamey","Perth"],"economy":"o","government":"+","hygiene":"+","awareness":"+"},"San José":{"name":"San José","latitude":9.929356,"longitude":-84.090858,"population":1068,"connections":["Toronto","Amsterdam","أبو ظبي","Pittsburgh","Harare","Aşgabat"],"economy":"-","government":"o","hygiene":"+","awareness":"o"},"San Juan":{"name":"San Juan","latitude":18.46414,"longitude":-66.10133,"population":1402,"connections":["La Habana","Bloemfontein","Accra","Dublin","San Francisco","Brisbane"],"economy":"-","government":"o","hygiene":"+","awareness":"o"},"San Salvador":{"name":"San Salvador","latitude":13.695812,"longitude":-89.217141,"population":128,"connections":["Ottawa","Bissau"],"economy":"o","government":"o","hygiene":"+","awareness":"o"},"Santiago de Chile":{"name":"Santiago de Chile","latitude":-33.454952,"longitude":-70.675157,"population":3227,"connections":["مدينة الجزائر","Miami","Edmonton","Los Angeles","العيون","Bogotá","Belfast","武汉市"],"economy":"--","government":"+","hygiene":"+","awareness":"+"},"Santo Domingo":{"name":"Santo Domingo","latitude":18.484924,"longitude":-69.931906,"population":510,"connections":["Milano","Riga","Yaoundé"],"economy":"o","government":"o","hygiene":"o","awareness":"+"},"Seattle":{"name":"Seattle","latitude":47.602296,"longitude":-122.340698,"population":2352,"connections":["澳門","Praha","평양","Asunción","Brazzaville","کابل"],"economy":"o","government":"+","hygiene":"+","awareness":"++"},"Sevilla":{"name":"Sevilla","latitude":37.389006,"longitude":-5.984241,"population":401,"connections":["München","Berlin","Managua","मुंबई","Lomé"],"economy":"o","government":"+","hygiene":"o","awareness":"+"},"Springfield (Missouri)":{"name":"Springfield (Missouri)","latitude":39.783079,"longitude":-89.65092,"population":303,"connections":["Windhoek","Winnipeg"],"economy":"o","government":"+","hygiene":"++","awareness":"+"},"Stockholm":{"name":"Stockholm","latitude":59.333422,"longitude":18.067878,"population":652,"connections":["乌鲁木齐市","London","Тошкент","Barcelona"],"economy":"o","government":"++","hygiene":"++","awareness":"++"},"Strasbourg":{"name":"Strasbourg","latitude":48.575226,"longitude":7.756599,"population":161,"connections":["Windhoek","Phoenix"],"economy":"o","government":"++","hygiene":"o","awareness":"++"},"Sydney":{"name":"Sydney","latitude":-33.870735,"longitude":151.194245,"population":2942,"connections":["اسلام آباد","München","Honolulu","Gdańsk","Ankara"],"economy":"o","government":"++","hygiene":"+","awareness":"++"},"Tallinn":{"name":"Tallinn","latitude":59.436721,"longitude":24.751283,"population":259,"connections":["Charlotte","រាជធានី​ភ្នំពេញ"],"economy":"o","government":"o","hygiene":"+","awareness":"o"},"Tegucigalpa":{"name":"Tegucigalpa","latitude":14.063599,"longitude":-87.172358,"population":527,"connections":["Managua","西安市","Detroit","Αθήνα","Amsterdam"],"economy":"--","government":"+","hygiene":"o","awareness":"o"},"Tijuana":{"name":"Tijuana","latitude":32.513244,"longitude":-117.039476,"population":499,"connections":["Kansas City","Jakarta","Kinshasa","Dodoma","Antananarivo"],"economy":"-","government":"o","hygiene":"-","awareness":"-"},"Tirana":{"name":"Tirana","latitude":41.327368,"longitude":19.816449,"population":210,"connections":["重庆市","Lima","成都市","تهران"],"economy":"-","government":"o","hygiene":"o","awareness":"o"},"Tolhuin":{"name":"Tolhuin","latitude":-54.510552,"longitude":-67.193003,"population":3,"connections":[],"economy":"--","government":"o","hygiene":"+","awareness":"o"},"Toronto":{"name":"Toronto","latitude":43.667018,"longitude":-79.428191,"population":1798,"connections":["Winnipeg","بيروت","Austin","Perth","Ouagadougou","Wien","Wellington","San José","Milano"],"economy":"o","government":"+","hygiene":"+","awareness":"+"},"Toulouse":{"name":"Toulouse","latitude":43.603413,"longitude":1.442796,"population":785,"connections":["Anchorage","Salt Lake City","Denver","서울특별시","Санкт-Петербург"],"economy":"o","government":"+","hygiene":"+","awareness":"+"},"Tromsø":{"name":"Tromsø","latitude":69.650793,"longitude":18.955514,"population":48,"connections":[],"economy":"o","government":"+","hygiene":"++","awareness":"+"},"Tórshavn":{"name":"Tórshavn","latitude":62.010684,"longitude":-6.775507,"population":11,"connections":[],"economy":"o","government":"+","hygiene":"+","awareness":"+"},"Vaduz":{"name":"Vaduz","latitude":47.139719,"longitude":9.521993,"population":6,"connections":[],"economy":"o","government":"++","hygiene":"+","awareness":"++"},"Vancouver":{"name":"Vancouver","latitude":49.282804,"longitude":-123.121846,"population":1432,"connections":["Charlotte","Wellington","Gdańsk","አዲስ አበባ","Los Angeles"],"economy":"-","government":"+","hygiene":"+","awareness":"+"},"Vilnius":{"name":"Vilnius","latitude":54.677467,"longitude":25.266659,"population":331,"connections":["काठमाडौँ","成都市"],"economy":"o","government":"o","hygiene":"+","awareness":"+"},"Warszawa":{"name":"Warszawa","latitude":52.22955,"longitude":21.013112,"population":1034,"connections":["Abuja","Porto Alegre","成都市","Nashville","Петропавловск-Камчатский","Душанбе","长春市"],"economy":"-","government":"+","hygiene":"+","awareness":"o"},"Washington, D.C.":{"name":"Washington, D.C.","latitude":38.907165,"longitude":-77.042004,"population":2752,"connections":["Ciudad de México","Recife","मुंबई","Kinshasa","بغداد","Gaborone","Windhoek","Paris"],"economy":"-","government":"o","hygiene":"o","awareness":"o"},"Wellington":{"name":"Wellington","latitude":-41.284544,"longitude":174.780388,"population":131,"connections":["Երևան","Toronto","Bakı","Vancouver"],"economy":"o","government":"+","hygiene":"++","awareness":"++"},"Wien":{"name":"Wien","latitude":48.207166,"longitude":16.373535,"population":1162,"connections":["Hamburg","Ottawa","Pot Mosbi","Praha","Երևան","Toronto","Conakry","Boston","Улаанбаатар"],"economy":"o","government":"+","hygiene":"+","awareness":"+"},"Windhoek":{"name":"Windhoek","latitude":-22.561205,"longitude":17.064971,"population":153,"connections":["Springfield (Missouri)","Harare","Washington, D.C.","香港","Strasbourg"],"economy":"-","government":"o","hygiene":"o","awareness":"o"},"Winnipeg":{"name":"Winnipeg","latitude":49.896219,"longitude":-97.143992,"population":474,"connections":["ঢাকা","New Orleans","Ciudad de Guatemala","Springfield (Missouri)","Toronto","Roma"],"economy":"o","government":"+","hygiene":"++","awareness":"+"},"Yamoussoukro":{"name":"Yamoussoukro","latitude":6.828338,"longitude":-5.286286,"population":96,"connections":["Porto-Novo","Madrid","თბილისი","Lusaka","اسلام آباد","Houston","Accra"],"economy":"--","government":"o","hygiene":"o","awareness":"o"},"Yaoundé":{"name":"Yaoundé","latitude":3.8488,"longitude":11.500151,"population":723,"connections":["Cleveland","አዲስ አበባ","Santo Domingo","澳門","Москва"],"economy":"--","government":"o","hygiene":"o","awareness":"-"},"Zagreb":{"name":"Zagreb","latitude":45.814816,"longitude":15.983556,"population":397,"connections":["Gdańsk","تونس","Barcelona"],"economy":"-","government":"o","hygiene":"o","awareness":"o"},"Αθήνα":{"name":"Αθήνα","latitude":38.065338,"longitude":23.719113,"population":323,"connections":["Ciudad de México","بغداد","Tegucigalpa"],"economy":"--","government":"o","hygiene":"o","awareness":"o"},"Λευκωσία":{"name":"Λευκωσία","latitude":35.185093,"longitude":33.383325,"population":173,"connections":["Salt Lake City","ঢাকা"],"economy":"o","government":"o","hygiene":"+","awareness":"+"},"Београд":{"name":"Београд","latitude":44.806909,"longitude":20.439927,"population":768,"connections":["Cincinnati","Portland","Denver","Ciudad de Córdoba","Скопје"],"economy":"o","government":"o","hygiene":"+","awareness":"+"},"Бишкек":{"name":"Бишкек","latitude":42.875596,"longitude":74.56611,"population":418,"connections":["الخرطوم","Detroit","София"],"economy":"-","government":"-","hygiene":"o","awareness":"o"},"Владивосток":{"name":"Владивосток","latitude":43.120517,"longitude":131.870348,"population":329,"connections":["சிங்கப்பூர் குடியரசு","Нұр-Сұлтан","تهران"],"economy":"-","government":"o","hygiene":"+","awareness":"++"},"Донецьк":{"name":"Донецьк","latitude":48.013298,"longitude":37.800314,"population":481,"connections":["Detroit","နေပြည်တော်","Lomé"],"economy":"-","government":"o","hygiene":"o","awareness":"+"},"Душанбе":{"name":"Душанбе","latitude":38.561035,"longitude":68.786042,"population":296,"connections":["Dodoma","Chicago","Warszawa"],"economy":"--","government":"o","hygiene":"o","awareness":"o"},"Київ":{"name":"Київ","latitude":50.451382,"longitude":30.520325,"population":1665,"connections":["東京","Conakry","Pretoria","Санкт-Петербург","Мурманск","Brisbane"],"economy":"o","government":"+","hygiene":"+","awareness":"o"},"Москва":{"name":"Москва","latitude":55.754797,"longitude":37.622831,"population":7051,"connections":["Yaoundé","临沂市","Reykjavík","Kampala","서울특별시","Kinshasa","بغداد","Пермь","重庆市","الرياض"],"economy":"o","government":"o","hygiene":"+","awareness":"+"},"Мурманск":{"name":"Мурманск","latitude":68.956676,"longitude":33.078235,"population":171,"connections":["Lusaka","بغداد","Київ"],"economy":"o","government":"+","hygiene":"+","awareness":"o"},"Мінск":{"name":"Мінск","latitude":53.899187,"longitude":27.558348,"population":1061,"connections":["Salt Lake City","الرياض","กรุงเทพมหานคร","Phoenix","Lima"],"economy":"-","government":"+","hygiene":"o","awareness":"+"},"Новосибирск":{"name":"Новосибирск","latitude":55.012441,"longitude":82.93292,"population":797,"connections":["Las Vegas","Madrid","الدوحة","Milwaukee","临沂市"],"economy":"-","government":"+","hygiene":"+","awareness":"+"},"Нұр-Сұлтан":{"name":"Нұр-Сұлтан","latitude":51.158199,"longitude":71.47801,"population":442,"connections":["Rio de Janeiro","Владивосток","بيروت","Quito","Amsterdam"],"economy":"-","government":"o","hygiene":"o","awareness":"o"},"Пермь":{"name":"Пермь","latitude":58.026591,"longitude":56.258989,"population":619,"connections":["Milwaukee","Москва","Nairobi","Edinburgh"],"economy":"o","government":"++","hygiene":"+","awareness":"+"},"Петропавловск-Камчатский":{"name":"Петропавловск-Камчатский","latitude":53.043017,"longitude":158.681761,"population":103,"connections":["صنعاء‎","Warszawa","서울특별시","አዲስ አበባ","香港"],"economy":"--","government":"+","hygiene":"+","awareness":"+"},"Подгорица":{"name":"Подгорица","latitude":42.433871,"longitude":19.258892,"population":94,"connections":["临沂市","Houston","Brazzaville","Скопје"],"economy":"-","government":"o","hygiene":"o","awareness":"+"},"Санкт-Петербург":{"name":"Санкт-Петербург","latitude":59.936461,"longitude":30.306277,"population":2819,"connections":["თბილისი","Köln","Київ","Oslo","Niamey","Ouagadougou","Honolulu","Toulouse","मुंबई"],"economy":"o","government":"+","hygiene":"+","awareness":"+"},"Сарајево":{"name":"Сарајево","latitude":43.855589,"longitude":18.417665,"population":160,"connections":["أبو ظبي","武汉市","Maputo"],"economy":"-","government":"o","hygiene":"o","awareness":"o"},"Скопје":{"name":"Скопје","latitude":42.00508,"longitude":21.436219,"population":288,"connections":["Maseru","Београд","Bern","Подгорица"],"economy":"--","government":"+","hygiene":"+","awareness":"o"},"София":{"name":"София","latitude":42.72738,"longitude":23.313681,"population":738,"connections":["Dakar","नई दिल्ली","الرِّبَاط‎","Kampala","Бишкек"],"economy":"-","government":"+","hygiene":"+","awareness":"o"},"Тошкент":{"name":"Тошкент","latitude":41.302633,"longitude":69.244341,"population":983,"connections":["சிங்கப்பூர் குடியரசு","澳門","Stockholm","Aşgabat","Phoenix","乌鲁木齐市"],"economy":"-","government":"o","hygiene":"o","awareness":"o"},"Улаанбаатар":{"name":"Улаанбаатар","latitude":47.885643,"longitude":106.906333,"population":828,"connections":["Ciudad de Córdoba","Asunción","Bakı","Wien","Bangî","乌鲁木齐市"],"economy":"-","government":"o","hygiene":"+","awareness":"+"},"Хатанга":{"name":"Хатанга","latitude":71.964,"longitude":102.440398,"population":3,"connections":[],"economy":"--","government":"+","hygiene":"o","awareness":"o"},"Якутск":{"name":"Якутск","latitude":62.034779,"longitude":129.675975,"population":153,"connections":["Kinshasa","Brazzaville","Montreal","Ciudad de Córdoba","Maseru"],"economy":"o","government":"o","hygiene":"+","awareness":"o"},"Երևան":{"name":"Երևան","latitude":40.188261,"longitude":44.516031,"population":507,"connections":["Albuquerque","Ottawa","Wien","Wellington","Kansas City"],"economy":"--","government":"o","hygiene":"o","awareness":"o"},"ירושלים":{"name":"ירושלים","latitude":31.76945,"longitude":35.211749,"population":500,"connections":["Bergen","मुंबई"],"economy":"-","government":"+","hygiene":"+","awareness":"+"},"أبو ظبي":{"name":"أبو ظبي","latitude":24.461165,"longitude":54.380084,"population":791,"connections":["Сарајево","Phoenix","San José","Amsterdam","ঢাকা"],"economy":"o","government":"++","hygiene":"++","awareness":"++"},"أسمرة":{"name":"أسمرة","latitude":15.323331,"longitude":38.922393,"population":361,"connections":["Cincinnati","上海市","Ottawa"],"economy":"--","government":"o","hygiene":"o","awareness":"-"},"اسلام آباد":{"name":"اسلام آباد","latitude":33.6812,"longitude":73.039408,"population":318,"connections":["کابل","Sydney","Phoenix","Yamoussoukro","Malabo"],"economy":"--","government":"o","hygiene":"-","awareness":"o"},"الخرطوم":{"name":"الخرطوم","latitude":15.504181,"longitude":32.554741,"population":2707,"connections":["Nashville","上海市","香港","Бишкек","मुंबई","東京","Nairobi","Paramaribo","昆明市"],"economy":"-","government":"-","hygiene":"-","awareness":"o"},"الدوحة":{"name":"الدوحة","latitude":25.279646,"longitude":51.530877,"population":470,"connections":["Новосибирск","Lomé"],"economy":"o","government":"+","hygiene":"+","awareness":"+"},"الرياض":{"name":"الرياض","latitude":24.723684,"longitude":46.682419,"population":3257,"connections":["서울특별시","နေပြည်တော်","بغداد","Ciudad de Panamá","Portland","Мінск","Москва","Houston"],"economy":"o","government":"+","hygiene":"+","awareness":"++"},"الرِّبَاط‎":{"name":"الرِّبَاط‎","latitude":33.973755,"longitude":-6.851085,"population":267,"connections":["Quito","Dodoma","Lëtzebuerg","София","صنعاء‎","昆明市"],"economy":"-","government":"o","hygiene":"o","awareness":"o"},"العيون":{"name":"العيون","latitude":27.151611,"longitude":-13.200184,"population":112,"connections":["Port-au-Prince","Porto Alegre","Santiago de Chile","مسقط","नई दिल्ली"],"economy":"o","government":"o","hygiene":"o","awareness":"o"},"المنامة":{"name":"المنامة","latitude":26.223995,"longitude":50.587652,"population":98,"connections":["Brasília","Budapest","اِنْجَمِينَا","Manaus","武汉市","昆明市"],"economy":"o","government":"+","hygiene":"+","awareness":"+"},"اِنْجَمِينَا":{"name":"اِنْجَمِينَا","latitude":12.133307,"longitude":15.053682,"population":388,"connections":["Minneapolis","Antananarivo","المنامة","រាជធានី​ភ្នំពេញ","አዲስ አበባ"],"economy":"--","government":"-","hygiene":"-","awareness":"o"},"بغداد":{"name":"بغداد","latitude":33.316831,"longitude":44.365516,"population":2411,"connections":["上海市","Houston","नई दिल्ली","Hà Nội","الرياض","Москва","Αθήνα","La Habana","Washington, D.C.","Budapest","Мурманск","Bogotá","சிங்கப்பூர் குடியரசு"],"economy":"--","government":"-","hygiene":"-","awareness":"o"},"بيروت":{"name":"بيروت","latitude":33.894418,"longitude":35.501364,"population":821,"connections":["Toronto","Monrovia","Bangî","Ljubljana","Нұр-Сұлтан","広島市"],"economy":"-","government":"-","hygiene":"o","awareness":"-"},"تهران":{"name":"تهران","latitude":35.694502,"longitude":51.377963,"population":5629,"connections":["武汉市","Chicago","Roma","Tirana","Jakarta","Владивосток","重庆市","صنعاء‎","Rio de Janeiro"],"economy":"o","government":"+","hygiene":"+","awareness":"+"},"تونس":{"name":"تونس","latitude":36.808333,"longitude":10.183444,"population":372,"connections":["Zagreb","Cape Town"],"economy":"o","government":"+","hygiene":"+","awareness":"o"},"دمشق":{"name":"دمشق","latitude":33.514198,"longitude":36.275857,"population":546,"connections":["Ciudad de Córdoba","Buenos Aires","成都市","Belfast","Pretoria","평양"],"economy":"--","government":"-","hygiene":"-","awareness":"--"},"صنعاء‎":{"name":"صنعاء‎","latitude":15.372441,"longitude":44.191022,"population":1293,"connections":["Miami","乌鲁木齐市","تهران","Петропавловск-Камчатский","الرِّبَاط‎","Köln"],"economy":"--","government":"-","hygiene":"-","awareness":"-"},"طرابلس":{"name":"طرابلس","latitude":32.887837,"longitude":13.190653,"population":602,"connections":["Roma","Juba","Brazzaville","Helsinki","Hà Nội"],"economy":"-","government":"o","hygiene":"o","awareness":"o"},"عمان":{"name":"عمان","latitude":31.951697,"longitude":35.912604,"population":1556,"connections":["Bratislava","広島市","Montreal","Brasília","Bloemfontein"],"economy":"--","government":"o","hygiene":"o","awareness":"o"},"كوالا لومڤور":{"name":"كوالا لومڤور","latitude":3.138161,"longitude":101.679091,"population":4423,"connections":["Bogotá","Belfast","Chicago","東京","Ljubljana","Kinshasa","Maputo","ঢাকা","Luanda"],"economy":"o","government":"+","hygiene":"+","awareness":"o"},"مدينة الجزائر":{"name":"مدينة الجزائر","latitude":36.730492,"longitude":3.0878,"population":1846,"connections":["Santiago de Chile","El Paso","Ouagadougou","Nairobi","Ljubljana"],"economy":"-","government":"+","hygiene":"o","awareness":"o"},"مسقط":{"name":"مسقط","latitude":23.585252,"longitude":58.380405,"population":923,"connections":["Dallas","평양","العيون","Dakar","Nantes"],"economy":"o","government":"o","hygiene":"+","awareness":"+"},"نواكشوط":{"name":"نواكشوط","latitude":18.073033,"longitude":-15.960086,"population":470,"connections":["Maputo","Buenos Aires","Austin","Kinshasa","Praha"],"economy":"-","government":"o","hygiene":"o","awareness":"o"},"کابل":{"name":"کابل","latitude":34.549668,"longitude":69.207336,"population":1619,"connections":["Seattle","Edmonton","Milano","Minneapolis","თბილისი","Antananarivo","Bakı","اسلام آباد","Bern"],"economy":"-","government":"-","hygiene":"o","awareness":"-"},"काठमाडौँ":{"name":"काठमाडौँ","latitude":27.718226,"longitude":85.320639,"population":514,"connections":["Vilnius","Lusaka","台北","Berlin","Göteborg"],"economy":"-","government":"o","hygiene":"+","awareness":"+"},"नई दिल्ली":{"name":"नई दिल्ली","latitude":28.615314,"longitude":77.211043,"population":12723,"connections":["Prishtinë","New York City","ঢাকা","بغداد","العيون","Hà Nội","Berlin","上海市","Dallas","西安市","София"],"economy":"+","government":"o","hygiene":"o","awareness":"o"},"मुंबई":{"name":"मुंबई","latitude":19.074411,"longitude":72.89079,"population":13227,"connections":["Санкт-Петербург","Washington, D.C.","Nairobi","الخرطوم","Atlanta","Sevilla","ירושלים","Los Angeles","Dallas"],"economy":"-","government":"o","hygiene":"o","awareness":"o"},"ঢাকা":{"name":"ঢাকা","latitude":23.813919,"longitude":90.413144,"population":4251,"connections":["서울특별시","北京市","昆明市","Bogotá","नई दिल्ली","Winnipeg","كوالا لومڤور","Budapest","Λευκωσία","أبو ظبي"],"economy":"o","government":"o","hygiene":"o","awareness":"o"},"சிங்கப்பூர் குடியரசு":{"name":"சிங்கப்பூர் குடியரசு","latitude":1.366398,"longitude":103.8455,"population":3070,"connections":["กรุงเทพมหานคร","Houston","Oslo","بغداد","Тошкент","Владивосток","西安市","Philadelphia"],"economy":"o","government":"+","hygiene":"o","awareness":"+"},"කොළඹ":{"name":"කොළඹ","latitude":6.925927,"longitude":79.864788,"population":423,"connections":["厦门市","Bruxelles"],"economy":"-","government":"+","hygiene":"+","awareness":"o"},"กรุงเทพมหานคร":{"name":"กรุงเทพมหานคร","latitude":13.759911,"longitude":100.539718,"population":4739,"connections":["Ciudad de Panamá","சிங்கப்பூர் குடியரசு","Kigali","Мінск","Bujumbura","临沂市","成都市","Jakarta"],"economy":"o","government":"o","hygiene":"+","awareness":"++"},"ວຽງຈັນ":{"name":"ວຽງຈັນ","latitude":17.980348,"longitude":103,"population":392,"connections":["Nashville","Perth","Cleveland","Denver","រាជធានី​ភ្នំពេញ"],"economy":"-","government":"o","hygiene":"o","awareness":"o"},"ཐིམ་ཕུ་":{"name":"ཐིམ་ཕུ་","latitude":27.471326,"longitude":89.633245,"population":66,"connections":["Managua","Niamey","Köln","Antananarivo"],"economy":"o","government":"o","hygiene":"+","awareness":"o"},"နေပြည်တော်":{"name":"နေပြည်တော်","latitude":19.763475,"longitude":96.078624,"population":612,"connections":["Донецьк","Ciudad de Córdoba","Detroit","الرياض","Nassau"],"economy":"-","government":"o","hygiene":"+","awareness":"o"},"თბილისი":{"name":"თბილისი","latitude":41.717832,"longitude":44.826491,"population":527,"connections":["کابل","Kingston","Yamoussoukro","Maputo","Санкт-Петербург"],"economy":"-","government":"o","hygiene":"o","awareness":"o"},"አዲስ አበባ":{"name":"አዲስ አበባ","latitude":8.985552,"longitude":38.7572,"population":1210,"connections":["Yaoundé","Caracas","Asunción","Vancouver","New Orleans","اِنْجَمِينَا","Петропавловск-Камчатский"],"economy":"--","government":"-","hygiene":"-","awareness":"-"},"រាជធានី​ភ្នំពេញ":{"name":"រាជធានី​ភ្នំពេញ","latitude":11.555113,"longitude":104.925883,"population":763,"connections":["اِنْجَمِينَا","ວຽງຈັນ","Port-au-Prince","Tallinn","Freetown"],"economy":"-","government":"+","hygiene":"o","awareness":"o"},"上海市":{"name":"上海市","latitude":31.228743,"longitude":121.462987,"population":13847,"connections":["Nassau","الخرطوم","بغداد","北京市","नई दिल्ली","武汉市","昆明市","أسمرة","Los Angeles","広島市","Chicago","東京","Port-au-Prince"],"economy":"o","government":"++","hygiene":"+","awareness":"+"},"临沂市":{"name":"临沂市","latitude":35.103643,"longitude":118.349429,"population":6264,"connections":["长春市","Porto-Novo","Brasília","Lima","Новосибирск","Москва","กรุงเทพมหานคร","New York City","Подгорица"],"economy":"o","government":"+","hygiene":"+","awareness":"o"},"乌鲁木齐市":{"name":"乌鲁木齐市","latitude":43.826398,"longitude":88,"population":1967,"connections":["Kampala","Melbourne","Тошкент","Bakı","København","Улаанбаатар","Stockholm","صنعاء‎"],"economy":"+","government":"o","hygiene":"+","awareness":"+"},"北京市":{"name":"北京市","latitude":39.909058,"longitude":116.420775,"population":13485,"connections":["上海市","ঢাকা","Montevideo","Houston","Buenos Aires","Georgetown (Guyana)","København","武汉市","東京"],"economy":"o","government":"+","hygiene":"++","awareness":"+"},"厦门市":{"name":"厦门市","latitude":24.478244,"longitude":118.088262,"population":1393,"connections":["Salt Lake City","Budapest","Brazzaville","කොළඹ","București","Kigali"],"economy":"o","government":"+","hygiene":"o","awareness":"o"},"台北":{"name":"台北","latitude":25.040803,"longitude":121.553061,"population":1487,"connections":["Charlotte","Denver","Madrid","Bamako","Porto Alegre","Ciudad de Guatemala","El Paso","काठमाडौँ","Las Vegas"],"economy":"-","government":"o","hygiene":"+","awareness":"o"},"広島市":{"name":"広島市","latitude":34.391966,"longitude":132.456186,"population":688,"connections":["上海市","عمان","Lungsod ng Maynila","Chicago","بيروت"],"economy":"-","government":"+","hygiene":"+","awareness":"++"},"成都市":{"name":"成都市","latitude":30.57868,"longitude":104.072105,"population":9347,"connections":["Vilnius","西安市","กรุงเทพมหานคร","دمشق","Jakarta","Rio de Janeiro","Tirana","Warszawa","Atlanta"],"economy":"-","government":"+","hygiene":"++","awareness":"o"},"昆明市":{"name":"昆明市","latitude":24.883738,"longitude":102.8255,"population":3954,"connections":["الخرطوم","ঢাকা","London","București","Kigali","الرِّبَاط‎","المنامة","上海市"],"economy":"o","government":"+","hygiene":"+","awareness":"++"},"東京":{"name":"東京","latitude":35.682386,"longitude":139.753906,"population":20652,"connections":["New Orleans","El Paso","الخرطوم","西安市","Reykjavík","كوالا لومڤور","上海市","Київ","北京市","Jakarta"],"economy":"o","government":"+","hygiene":"+","awareness":"++"},"武汉市":{"name":"武汉市","latitude":30.588732,"longitude":114.305183,"population":5780,"connections":["تهران","المنامة","Сарајево","Roma","Monrovia","上海市","Santiago de Chile","北京市"],"economy":"o","government":"+","hygiene":"o","awareness":"o"},"澳門":{"name":"澳門","latitude":22.198593,"longitude":113.543892,"population":352,"connections":["Hamburg","Yaoundé","Seattle","Тошкент"],"economy":"o","government":"+","hygiene":"o","awareness":"o"},"西安市":{"name":"西安市","latitude":34.341878,"longitude":108.942458,"population":4678,"connections":["नई दिल्ली","Tegucigalpa","東京","Buenos Aires","成都市","Oslo","Pot Mosbi","சிங்கப்பூர் குடியரசு","Miami","Dallas","서울특별시"],"economy":"-","government":"+","hygiene":"o","awareness":"+"},"重庆市":{"name":"重庆市","latitude":29.43471,"longitude":106.904271,"population":18548,"connections":["Houston","Atlanta","تهران","Manaus","Москва","长春市","Miami","Tirana","Quito","香港","Prishtinë"],"economy":"o","government":"+","hygiene":"++","awareness":"+"},"长春市":{"name":"长春市","latitude":43.814754,"longitude":125.306995,"population":4846,"connections":["Hà Nội","Ljubljana","Warszawa","Los Angeles","Libreville","重庆市","München","临沂市"],"economy":"o","government":"+","hygiene":"+","awareness":"+"},"香港":{"name":"香港","latitude":22.324779,"longitude":114.15932,"population":4163,"connections":["Antananarivo","Ankara","Caracas","الخرطوم","Lima","Jakarta","Windhoek","重庆市","Петропавловск-Камчатский"],"economy":"-","government":"o","hygiene":"+","awareness":"o"},"서울특별시":{"name":"서울특별시","latitude":37.55987,"longitude":126.981275,"population":6203,"connections":["Москва","Chicago","Bruxelles","Toulouse","ঢাকা","Петропавловск-Камчатский","西安市","Ankara","الرياض","Caracas"],"economy":"+","government":"++","hygiene":"+","awareness":"+"},"평양":{"name":"평양","latitude":39.041651,"longitude":125.761336,"population":1386,"connections":["Cape Town","Nassau","دمشق","مسقط","Recife","Seattle","Port-au-Prince"],"economy":"--","government":"o","hygiene":"o","awareness":"o"}},"events":[{"type":"pathogenEncountered","pathogen":{"name":"Phagum vidiianum","infectivity":"o","mobility":"o","duration":"+","lethality":"+"},"round":1},{"type":"pathogenEncountered","pathogen":{"name":"Influenza iutiubensis","infectivity":"++","mobility":"++","duration":"--","lethality":"--"},"round":1},{"type":"pathogenEncountered","pathogen":{"name":"Methanobrevibacter colferi","infectivity":"o","mobility":"++","duration":"--","lethality":"-"},"round":1},{"type":"economicCrisis","sinceRound":9}]}
